{
  "type": "FeatureCollection",
  "features": [
    {
      "type": "Feature",
      "properties": {
        "name": "十番稲荷神社",
        "description": "宝船",
        "_markerType": "Icon",
        "_iconUrl": "https://maps.gsi.go.jp/portal/sys/v4/symbols/080.png",
        "_iconSize": [
          20,
          20
        ],
        "_iconAnchor": [
          10,
          10
        ]
      },
      "geometry": {
        "type": "Point",
        "coordinates": [
          139.735215,
          35.657227
        ]
      }
    },
    {
      "type": "Feature",
      "properties": {
        "name": "麻布氷川神社",
        "description": "毘沙門天",
        "_markerType": "Icon",
        "_iconUrl": "https://maps.gsi.go.jp/portal/sys/v4/symbols/080.png",
        "_iconSize": [
          20,
          20
        ],
        "_iconAnchor": [
          10,
          10
        ]
      },
      "geometry": {
        "type": "Point",
        "coordinates": [
          139.731331,
          35.652862
        ]
      }
    },
    {
      "type": "Feature",
      "properties": {
        "name": "大宝寺",
        "description": "大黒天",
        "_markerType": "Icon",
        "_iconUrl": "https://maps.gsi.go.jp/portal/sys/v4/symbols/080.png",
        "_iconSize": [
          20,
          20
        ],
        "_iconAnchor": [
          10,
          10
        ]
      },
      "geometry": {
        "type": "Point",
        "coordinates": [
          139.732758,
          35.655466
        ]
      }
    },
    {
      "type": "Feature",
      "properties": {
        "name": "飯倉熊野神社",
        "description": "恵比寿天",
        "_markerType": "Icon",
        "_iconUrl": "https://maps.gsi.go.jp/portal/sys/v4/symbols/080.png",
        "_iconSize": [
          20,
          20
        ],
        "_iconAnchor": [
          10,
          10
        ]
      },
      "geometry": {
        "type": "Point",
        "coordinates": [
          139.742714,
          35.65863
        ]
      }
    },
    {
      "type": "Feature",
      "properties": {
        "name": "宝珠院",
        "description": "弁財天",
        "_markerType": "Icon",
        "_iconUrl": "https://maps.gsi.go.jp/portal/sys/v4/symbols/080.png",
        "_iconSize": [
          20,
          20
        ],
        "_iconAnchor": [
          10,
          10
        ]
      },
      "geometry": {
        "type": "Point",
        "coordinates": [
          139.746695,
          35.65632
        ]
      }
    },
    {
      "type": "Feature",
      "properties": {
        "name": "櫻田神社",
        "description": "寿老人",
        "_markerType": "Icon",
        "_iconUrl": "https://maps.gsi.go.jp/portal/sys/v4/symbols/080.png",
        "_iconSize": [
          20,
          20
        ],
        "_iconAnchor": [
          10,
          10
        ]
      },
      "geometry": {
        "type": "Point",
        "coordinates": [
          139.72719,
          35.659458
        ]
      }
    },
    {
      "type": "Feature",
      "properties": {
        "name": "天祖神社",
        "description": "福禄寿",
        "_markerType": "Icon",
        "_iconUrl": "https://maps.gsi.go.jp/portal/sys/v4/symbols/080.png",
        "_iconSize": [
          20,
          20
        ],
        "_iconAnchor": [
          10,
          10
        ]
      },
      "geometry": {
        "type": "Point",
        "coordinates": [
          139.729035,
          35.66488
        ]
      }
    },
    {
      "type": "Feature",
      "properties": {
        "name": "久國神社",
        "description": "布袋尊",
        "_markerType": "Icon",
        "_iconUrl": "https://maps.gsi.go.jp/portal/sys/v4/symbols/080.png",
        "_iconSize": [
          20,
          20
        ],
        "_iconAnchor": [
          10,
          10
        ]
      },
      "geometry": {
        "type": "Point",
        "coordinates": [
          139.738433,
          35.667791
        ]
      }
    }
  ]
}